[
  {"icao": "KATL", "iata": "ATL", "name": "Hartsfield-Jackson Atlanta International Airport", "city": "Atlanta", "country": "United States", "lat": 33.6367, "lon": -84.4281},
  {"icao": "KDFW", "iata": "DFW", "name": "Dallas/Fort Worth International Airport", "city": "Dallas", "country": "United States", "lat": 32.8968, "lon": -97.0380},
  {"icao": "KDEN", "iata": "DEN", "name": "Denver International Airport", "city": "Denver", "country": "United States", "lat": 39.8617, "lon": -104.6731},
  {"icao": "KORD", "iata": "ORD", "name": "O'Hare International Airport", "city": "Chicago", "country": "United States", "lat": 41.9786, "lon": -87.9048},
  {"icao": "KLAX", "iata": "LAX", "name": "Los Angeles International Airport", "city": "Los Angeles", "country": "United States", "lat": 33.9425, "lon": -118.4081},
  {"icao": "KJFK", "iata": "JFK", "name": "John F. Kennedy International Airport", "city": "New York", "country": "United States", "lat": 40.6398, "lon": -73.7789},
  {"icao": "KLAS", "iata": "LAS", "name": "Harry Reid International Airport", "city": "Las Vegas", "country": "United States", "lat": 36.0801, "lon": -115.1522},
  {"icao": "KMCO", "iata": "MCO", "name": "Orlando International Airport", "city": "Orlando", "country": "United States", "lat": 28.4294, "lon": -81.3089},
  {"icao": "KMIA", "iata": "MIA", "name": "Miami International Airport", "city": "Miami", "country": "United States", "lat": 25.7932, "lon": -80.2906},
  {"icao": "KCLT", "iata": "CLT", "name": "Charlotte Douglas International Airport", "city": "Charlotte", "country": "United States", "lat": 35.2140, "lon": -80.9431},
  {"icao": "KSEA", "iata": "SEA", "name": "Seattle-Tacoma International Airport", "city": "Seattle", "country": "United States", "lat": 47.4490, "lon": -122.3088},
  {"icao": "KPHX", "iata": "PHX", "name": "Phoenix Sky Harbor International Airport", "city": "Phoenix", "country": "United States", "lat": 33.4343, "lon": -112.0116},
  {"icao": "KEWR", "iata": "EWR", "name": "Newark Liberty International Airport", "city": "Newark", "country": "United States", "lat": 40.6925, "lon": -74.1687},
  {"icao": "KSFO", "iata": "SFO", "name": "San Francisco International Airport", "city": "San Francisco", "country": "United States", "lat": 37.6213, "lon": -122.3790},
  {"icao": "KIAH", "iata": "IAH", "name": "George Bush Intercontinental Airport", "city": "Houston", "country": "United States", "lat": 29.9844, "lon": -95.3414},
  {"icao": "KBOS", "iata": "BOS", "name": "Logan International Airport", "city": "Boston", "country": "United States", "lat": 42.3656, "lon": -71.0096},
  {"icao": "KFLL", "iata": "FLL", "name": "Fort Lauderdale-Hollywood International Airport", "city": "Fort Lauderdale", "country": "United States", "lat": 26.0726, "lon": -80.1527},
  {"icao": "KMSP", "iata": "MSP", "name": "Minneapolis-St Paul International Airport", "city": "Minneapolis", "country": "United States", "lat": 44.8848, "lon": -93.2223},
  {"icao": "KDTW", "iata": "DTW", "name": "Detroit Metropolitan Wayne County Airport", "city": "Detroit", "country": "United States", "lat": 42.2124, "lon": -83.3534},
  {"icao": "KPHL", "iata": "PHL", "name": "Philadelphia International Airport", "city": "Philadelphia", "country": "United States", "lat": 39.8719, "lon": -75.2411},
  {"icao": "KLGA", "iata": "LGA", "name": "LaGuardia Airport", "city": "New York", "country": "United States", "lat": 40.7769, "lon": -73.8740},
  {"icao": "KBWI", "iata": "BWI", "name": "Baltimore/Washington International Airport", "city": "Baltimore", "country": "United States", "lat": 39.1754, "lon": -76.6683},
  {"icao": "KDCA", "iata": "DCA", "name": "Ronald Reagan Washington National Airport", "city": "Washington", "country": "United States", "lat": 38.8521, "lon": -77.0377},
  {"icao": "KIAD", "iata": "IAD", "name": "Washington Dulles International Airport", "city": "Washington", "country": "United States", "lat": 38.9445, "lon": -77.4558},
  {"icao": "KSLC", "iata": "SLC", "name": "Salt Lake City International Airport", "city": "Salt Lake City", "country": "United States", "lat": 40.7884, "lon": -111.9778},
  {"icao": "KSAN", "iata": "SAN", "name": "San Diego International Airport", "city": "San Diego", "country": "United States", "lat": 32.7336, "lon": -117.1897},
  {"icao": "KTPA", "iata": "TPA", "name": "Tampa International Airport", "city": "Tampa", "country": "United States", "lat": 27.9755, "lon": -82.5332},
  {"icao": "KPDX", "iata": "PDX", "name": "Portland International Airport", "city": "Portland", "country": "United States", "lat": 45.5887, "lon": -122.5975},
  {"icao": "KAUS", "iata": "AUS", "name": "Austin-Bergstrom International Airport", "city": "Austin", "country": "United States", "lat": 30.1945, "lon": -97.6699},
  {"icao": "KBNA", "iata": "BNA", "name": "Nashville International Airport", "city": "Nashville", "country": "United States", "lat": 36.1245, "lon": -86.6782},
  {"icao": "KMDW", "iata": "MDW", "name": "Chicago Midway International Airport", "city": "Chicago", "country": "United States", "lat": 41.7868, "lon": -87.7522},
  {"icao": "KSTL", "iata": "STL", "name": "St. Louis Lambert International Airport", "city": "St. Louis", "country": "United States", "lat": 38.7487, "lon": -90.3700},
  {"icao": "KCLE", "iata": "CLE", "name": "Cleveland Hopkins International Airport", "city": "Cleveland", "country": "United States", "lat": 41.4117, "lon": -81.8498},
  {"icao": "KPIT", "iata": "PIT", "name": "Pittsburgh International Airport", "city": "Pittsburgh", "country": "United States", "lat": 40.4915, "lon": -80.2329},
  {"icao": "KCVG", "iata": "CVG", "name": "Cincinnati/Northern Kentucky International Airport", "city": "Cincinnati", "country": "United States", "lat": 39.0488, "lon": -84.6678},
  {"icao": "KHOU", "iata": "HOU", "name": "William P. Hobby Airport", "city": "Houston", "country": "United States", "lat": 29.6454, "lon": -95.2789},
  {"icao": "KOAK", "iata": "OAK", "name": "Oakland International Airport", "city": "Oakland", "country": "United States", "lat": 37.7213, "lon": -122.2208},
  {"icao": "KSJC", "iata": "SJC", "name": "Norman Y. Mineta San Jose International Airport", "city": "San Jose", "country": "United States", "lat": 37.3626, "lon": -121.9290},
  {"icao": "KRSW", "iata": "RSW", "name": "Southwest Florida International Airport", "city": "Fort Myers", "country": "United States", "lat": 26.5362, "lon": -81.7552},
  {"icao": "KSAT", "iata": "SAT", "name": "San Antonio International Airport", "city": "San Antonio", "country": "United States", "lat": 29.5337, "lon": -98.4698},
  {"icao": "KSMF", "iata": "SMF", "name": "Sacramento International Airport", "city": "Sacramento", "country": "United States", "lat": 38.6954, "lon": -121.5908},
  {"icao": "KMCI", "iata": "MCI", "name": "Kansas City International Airport", "city": "Kansas City", "country": "United States", "lat": 39.2976, "lon": -94.7139},
  {"icao": "KOMA", "iata": "OMA", "name": "Eppley Airfield", "city": "Omaha", "country": "United States", "lat": 41.3032, "lon": -95.8941},
  {"icao": "KSJD", "iata": "SJU", "name": "Luis Muñoz Marín International Airport", "city": "San Juan", "country": "Puerto Rico", "lat": 18.4394, "lon": -66.0018},
  {"icao": "PHNL", "iata": "HNL", "name": "Daniel K. Inouye International Airport", "city": "Honolulu", "country": "United States", "lat": 21.3187, "lon": -157.9225},
  {"icao": "PANC", "iata": "ANC", "name": "Ted Stevens Anchorage International Airport", "city": "Anchorage", "country": "United States", "lat": 61.1744, "lon": -149.9962},
  {"icao": "CYVR", "iata": "YVR", "name": "Vancouver International Airport", "city": "Vancouver", "country": "Canada", "lat": 49.1947, "lon": -123.1839},
  {"icao": "CYYZ", "iata": "YYZ", "name": "Toronto Pearson International Airport", "city": "Toronto", "country": "Canada", "lat": 43.6772, "lon": -79.6306},
  {"icao": "CYUL", "iata": "YUL", "name": "Montréal-Pierre Elliott Trudeau International Airport", "city": "Montreal", "country": "Canada", "lat": 45.4706, "lon": -73.7408},
  {"icao": "CYYC", "iata": "YYC", "name": "Calgary International Airport", "city": "Calgary", "country": "Canada", "lat": 51.1139, "lon": -114.0203},
  {"icao": "CYEG", "iata": "YEG", "name": "Edmonton International Airport", "city": "Edmonton", "country": "Canada", "lat": 53.3097, "lon": -113.5800},
  {"icao": "EGLL", "iata": "LHR", "name": "London Heathrow Airport", "city": "London", "country": "United Kingdom", "lat": 51.4700, "lon": -0.4543},
  {"icao": "EGKK", "iata": "LGW", "name": "London Gatwick Airport", "city": "London", "country": "United Kingdom", "lat": 51.1481, "lon": -0.1903},
  {"icao": "EHAM", "iata": "AMS", "name": "Amsterdam Airport Schiphol", "city": "Amsterdam", "country": "Netherlands", "lat": 52.3105, "lon": 4.7683},
  {"icao": "LFPG", "iata": "CDG", "name": "Charles de Gaulle Airport", "city": "Paris", "country": "France", "lat": 49.0097, "lon": 2.5479},
  {"icao": "EDDF", "iata": "FRA", "name": "Frankfurt Airport", "city": "Frankfurt", "country": "Germany", "lat": 50.0379, "lon": 8.5622},
  {"icao": "LEMD", "iata": "MAD", "name": "Adolfo Suárez Madrid-Barajas Airport", "city": "Madrid", "country": "Spain", "lat": 40.4719, "lon": -3.5626},
  {"icao": "LEBL", "iata": "BCN", "name": "Barcelona-El Prat Airport", "city": "Barcelona", "country": "Spain", "lat": 41.2971, "lon": 2.0785},
  {"icao": "LIRF", "iata": "FCO", "name": "Leonardo da Vinci-Fiumicino Airport", "city": "Rome", "country": "Italy", "lat": 41.8003, "lon": 12.2389},
  {"icao": "EDDM", "iata": "MUC", "name": "Munich Airport", "city": "Munich", "country": "Germany", "lat": 48.3538, "lon": 11.7861},
  {"icao": "LSZH", "iata": "ZRH", "name": "Zurich Airport", "city": "Zurich", "country": "Switzerland", "lat": 47.4647, "lon": 8.5492},
  {"icao": "LOWW", "iata": "VIE", "name": "Vienna International Airport", "city": "Vienna", "country": "Austria", "lat": 48.1103, "lon": 16.5697},
  {"icao": "EKCH", "iata": "CPH", "name": "Copenhagen Airport", "city": "Copenhagen", "country": "Denmark", "lat": 55.6180, "lon": 12.6560},
  {"icao": "ESSA", "iata": "ARN", "name": "Stockholm Arlanda Airport", "city": "Stockholm", "country": "Sweden", "lat": 59.6519, "lon": 17.9186},
  {"icao": "ENGM", "iata": "OSL", "name": "Oslo Airport, Gardermoen", "city": "Oslo", "country": "Norway", "lat": 60.1939, "lon": 11.1004},
  {"icao": "EFHK", "iata": "HEL", "name": "Helsinki-Vantaa Airport", "city": "Helsinki", "country": "Finland", "lat": 60.3172, "lon": 24.9633},
  {"icao": "EIDW", "iata": "DUB", "name": "Dublin Airport", "city": "Dublin", "country": "Ireland", "lat": 53.4213, "lon": -6.2701},
  {"icao": "LPPT", "iata": "LIS", "name": "Lisbon Portela Airport", "city": "Lisbon", "country": "Portugal", "lat": 38.7813, "lon": -9.1357},
  {"icao": "EBBR", "iata": "BRU", "name": "Brussels Airport", "city": "Brussels", "country": "Belgium", "lat": 50.9014, "lon": 4.4844},
  {"icao": "UUEE", "iata": "SVO", "name": "Sheremetyevo International Airport", "city": "Moscow", "country": "Russia", "lat": 55.9726, "lon": 37.4146},
  {"icao": "UUDD", "iata": "DME", "name": "Domodedovo International Airport", "city": "Moscow", "country": "Russia", "lat": 55.4088, "lon": 37.9063},
  {"icao": "LTFM", "iata": "IST", "name": "Istanbul Airport", "city": "Istanbul", "country": "Turkey", "lat": 41.2753, "lon": 28.7519},
  {"icao": "LTBA", "iata": "ISL", "name": "Istanbul Atatürk Airport", "city": "Istanbul", "country": "Turkey", "lat": 40.9769, "lon": 28.8146},
  {"icao": "OMDB", "iata": "DXB", "name": "Dubai International Airport", "city": "Dubai", "country": "United Arab Emirates", "lat": 25.2528, "lon": 55.3644},
  {"icao": "OOMS", "iata": "AUH", "name": "Abu Dhabi International Airport", "city": "Abu Dhabi", "country": "United Arab Emirates", "lat": 24.4330, "lon": 54.6511},
  {"icao": "OTHH", "iata": "DOH", "name": "Hamad International Airport", "city": "Doha", "country": "Qatar", "lat": 25.2731, "lon": 51.6080},
  {"icao": "VABB", "iata": "BOM", "name": "Chhatrapati Shivaji Maharaj International Airport", "city": "Mumbai", "country": "India", "lat": 19.0887, "lon": 72.8679},
  {"icao": "VIDP", "iata": "DEL", "name": "Indira Gandhi International Airport", "city": "Delhi", "country": "India", "lat": 28.5562, "lon": 77.1000},
  {"icao": "VOBL", "iata": "BLR", "name": "Kempegowda International Airport", "city": "Bangalore", "country": "India", "lat": 13.1979, "lon": 77.7063},
  {"icao": "VOMM", "iata": "MAA", "name": "Chennai International Airport", "city": "Chennai", "country": "India", "lat": 12.9941, "lon": 80.1709},
  {"icao": "VECC", "iata": "CCU", "name": "Netaji Subhas Chandra Bose International Airport", "city": "Kolkata", "country": "India", "lat": 22.6547, "lon": 88.4467},
  {"icao": "RJTT", "iata": "HND", "name": "Tokyo Haneda Airport", "city": "Tokyo", "country": "Japan", "lat": 35.5494, "lon": 139.7798},
  {"icao": "RJAA", "iata": "NRT", "name": "Narita International Airport", "city": "Tokyo", "country": "Japan", "lat": 35.7647, "lon": 140.3864},
  {"icao": "RJBB", "iata": "KIX", "name": "Kansai International Airport", "city": "Osaka", "country": "Japan", "lat": 34.4273, "lon": 135.2444},
  {"icao": "RJGG", "iata": "NGO", "name": "Chubu Centrair International Airport", "city": "Nagoya", "country": "Japan", "lat": 34.8584, "lon": 136.8054},
  {"icao": "RKSI", "iata": "ICN", "name": "Incheon International Airport", "city": "Seoul", "country": "South Korea", "lat": 37.4602, "lon": 126.4407},
  {"icao": "RKSS", "iata": "GMP", "name": "Gimpo International Airport", "city": "Seoul", "country": "South Korea", "lat": 37.5583, "lon": 126.7906},
  {"icao": "ZGGG", "iata": "CAN", "name": "Guangzhou Baiyun International Airport", "city": "Guangzhou", "country": "China", "lat": 23.3924, "lon": 113.2988},
  {"icao": "ZBAA", "iata": "PEK", "name": "Beijing Capital International Airport", "city": "Beijing", "country": "China", "lat": 40.0801, "lon": 116.5846},
  {"icao": "ZSPD", "iata": "PVG", "name": "Shanghai Pudong International Airport", "city": "Shanghai", "country": "China", "lat": 31.1443, "lon": 121.8083},
  {"icao": "ZSSS", "iata": "SHA", "name": "Shanghai Hongqiao International Airport", "city": "Shanghai", "country": "China", "lat": 31.1979, "lon": 121.3364},
  {"icao": "ZUCK", "iata": "CKG", "name": "Chongqing Jiangbei International Airport", "city": "Chongqing", "country": "China", "lat": 29.7192, "lon": 106.6417},
  {"icao": "ZUUU", "iata": "CTU", "name": "Chengdu Shuangliu International Airport", "city": "Chengdu", "country": "China", "lat": 30.5785, "lon": 103.9469},
  {"icao": "ZGSZ", "iata": "SZX", "name": "Shenzhen Bao'an International Airport", "city": "Shenzhen", "country": "China", "lat": 22.6393, "lon": 113.8108},
  {"icao": "ZYHB", "iata": "HRB", "name": "Harbin Taiping International Airport", "city": "Harbin", "country": "China", "lat": 45.6234, "lon": 126.2500},
  {"icao": "ZLXY", "iata": "XIY", "name": "Xi'an Xianyang International Airport", "city": "Xi'an", "country": "China", "lat": 34.4471, "lon": 108.7514},
  {"icao": "VHHH", "iata": "HKG", "name": "Hong Kong International Airport", "city": "Hong Kong", "country": "Hong Kong", "lat": 22.3080, "lon": 113.9185},
  {"icao": "RCTP", "iata": "TPE", "name": "Taiwan Taoyuan International Airport", "city": "Taipei", "country": "Taiwan", "lat": 25.0777, "lon": 121.2328},
  {"icao": "WMKK", "iata": "KUL", "name": "Kuala Lumpur International Airport", "city": "Kuala Lumpur", "country": "Malaysia", "lat": 2.7456, "lon": 101.7099},
  {"icao": "WSSS", "iata": "SIN", "name": "Singapore Changi Airport", "city": "Singapore", "country": "Singapore", "lat": 1.3644, "lon": 103.9915},
  {"icao": "VTBS", "iata": "BKK", "name": "Suvarnabhumi Airport", "city": "Bangkok", "country": "Thailand", "lat": 13.6900, "lon": 100.7501},
  {"icao": "WIII", "iata": "CGK", "name": "Soekarno-Hatta International Airport", "city": "Jakarta", "country": "Indonesia", "lat": -6.1256, "lon": 106.6559},
  {"icao": "RPLL", "iata": "MNL", "name": "Ninoy Aquino International Airport", "city": "Manila", "country": "Philippines", "lat": 14.5086, "lon": 121.0194},
  {"icao": "YSSY", "iata": "SYD", "name": "Sydney Kingsford Smith International Airport", "city": "Sydney", "country": "Australia", "lat": -33.9399, "lon": 151.1753},
  {"icao": "YMML", "iata": "MEL", "name": "Melbourne Airport", "city": "Melbourne", "country": "Australia", "lat": -37.6733, "lon": 144.8433},
  {"icao": "YBBN", "iata": "BNE", "name": "Brisbane Airport", "city": "Brisbane", "country": "Australia", "lat": -27.3842, "lon": 153.1175},
  {"icao": "YPPH", "iata": "PER", "name": "Perth Airport", "city": "Perth", "country": "Australia", "lat": -31.9403, "lon": 115.9672},
  {"icao": "NZAA", "iata": "AKL", "name": "Auckland Airport", "city": "Auckland", "country": "New Zealand", "lat": -37.0081, "lon": 174.7850},
  {"icao": "MMMX", "iata": "MEX", "name": "Mexico City International Airport", "city": "Mexico City", "country": "Mexico", "lat": 19.4363, "lon": -99.0721},
  {"icao": "MMUN", "iata": "CUN", "name": "Cancún International Airport", "city": "Cancun", "country": "Mexico", "lat": 21.0365, "lon": -86.8770},
  {"icao": "MMGL", "iata": "GDL", "name": "Guadalajara International Airport", "city": "Guadalajara", "country": "Mexico", "lat": 20.5218, "lon": -103.3106},
  {"icao": "SBGR", "iata": "GRU", "name": "São Paulo/Guarulhos International Airport", "city": "São Paulo", "country": "Brazil", "lat": -23.4356, "lon": -46.4731},
  {"icao": "SBGL", "iata": "GIG", "name": "Rio de Janeiro/Galeão International Airport", "city": "Rio de Janeiro", "country": "Brazil", "lat": -22.8099, "lon": -43.2505},
  {"icao": "SBBR", "iata": "BSB", "name": "Brasília International Airport", "city": "Brasília", "country": "Brazil", "lat": -15.8711, "lon": -47.9189},
  {"icao": "SKBO", "iata": "BOG", "name": "El Dorado International Airport", "city": "Bogotá", "country": "Colombia", "lat": 4.7016, "lon": -74.1469},
  {"icao": "SCEL", "iata": "SCL", "name": "Comodoro Arturo Merino Benítez International Airport", "city": "Santiago", "country": "Chile", "lat": -33.3930, "lon": -70.7858},
  {"icao": "SAEZ", "iata": "EZE", "name": "Ministro Pistarini International Airport", "city": "Buenos Aires", "country": "Argentina", "lat": -34.8222, "lon": -58.5358},
  {"icao": "SPJC", "iata": "LIM", "name": "Jorge Chávez International Airport", "city": "Lima", "country": "Peru", "lat": -12.0219, "lon": -77.1143},
  {"icao": "FACT", "iata": "CPT", "name": "Cape Town International Airport", "city": "Cape Town", "country": "South Africa", "lat": -33.9648, "lon": 18.6017},
  {"icao": "FAOR", "iata": "JNB", "name": "O. R. Tambo International Airport", "city": "Johannesburg", "country": "South Africa", "lat": -26.1392, "lon": 28.2460},
  {"icao": "HECA", "iata": "CAI", "name": "Cairo International Airport", "city": "Cairo", "country": "Egypt", "lat": 30.1219, "lon": 31.4056},
  {"icao": "GMMN", "iata": "CAS", "name": "Mohammed V International Airport", "city": "Casablanca", "country": "Morocco", "lat": 33.3675, "lon": -7.5897},
  {"icao": "DIAP", "iata": "ALG", "name": "Houari Boumediene Airport", "city": "Algiers", "country": "Algeria", "lat": 36.6910, "lon": 3.2154}
]
